station_complex_id,name,borough,lat,lon,lines,num_lines,total_ridership,avg_ridership_per_hour,pop_density_tract,median_income,commuters_tract,population_500m,bus_stops_250m,bus_stops_500m
611,Times Sq-42 St,Manhattan,40.75731,-73.986755,"N,Q,R,W,S,1,2,3,7",9,302813,204.05,0.0,0,0,0,4,29
447,Flushing-Main St,Queens,40.7596,-73.83003,7,1,233567,158.57,0.0,0,0,0,23,42
616,74-Broadway,Queens,40.746643,-73.891335,7,1,204667,131.37,0.0,0,0,0,10,21
610,Grand Central-42 St,Manhattan,40.751778,-73.976845,"S,4,5,6,7",5,198947,134.24,0.0,0,0,0,13,43
607,34 St-Herald Sq,Manhattan,40.749718,-73.98782,"B,D,F,M,N,Q,R,W",8,197172,131.36,0.0,0,0,0,8,34
602,14 St-Union Sq,Manhattan,40.735737,-73.99057,"L,N,Q,R,W,4,5,6",8,174070,115.13,0.0,0,0,0,11,22
614,59 St-Columbus Circle,Manhattan,40.768295,-73.981735,"A,B,C,D,1",5,155800,105.7,0.0,0,0,0,8,34
617,Atlantic Av-Barclays Ctr,Brooklyn,40.68436,-73.97767,"B,D,N,Q,R,2,3,4,5",9,155364,99.46,0.0,0,0,0,8,42
628,Fulton St,Manhattan,40.710373,-74.00758,"A,C,J,Z,2,3,4,5",8,145812,99.06,0.0,0,0,0,12,57
613,Lexington Av,Manhattan,40.76266,-73.967255,"N,R,W",3,140922,93.64,0.0,0,0,0,13,38
397,86 St,Manhattan,40.77949,-73.95559,"4,5,6",3,138529,93.6,0.0,0,0,0,5,21
636,Jay St-MetroTech,Brooklyn,40.692337,-73.98734,"A,C,F,R",4,136259,90.06,0.0,0,0,0,13,34
164,34 St-Penn Station,Manhattan,40.75229,-73.99339,"A,C,E",3,135211,89.43,0.0,0,0,0,8,23
624,Chambers St,Manhattan,40.71411,-74.00858,"A,C",2,134886,92.32,0.0,0,0,0,26,48
279,Sutphin Blvd-Archer Av-JFK Airport,Queens,40.700485,-73.80797,"E,J,Z",3,134660,84.96,0.0,0,0,0,18,32
310,96 St,Manhattan,40.79392,-73.97232,"1,2,3",3,134119,88.41,0.0,0,0,0,13,28
318,34 St-Penn Station,Manhattan,40.750374,-73.99106,"1,2,3",3,132823,88.49,0.0,0,0,0,8,28
278,Jamaica Center-Parsons/Archer,Queens,40.70215,-73.80111,"E,J,Z",3,131414,85.11,0.0,0,0,0,17,35
609,Bryant Pk,Manhattan,40.754223,-73.984566,"B,D,F,M",4,131053,84.93,0.0,0,0,0,10,32
623,Canal St,Manhattan,40.71953,-74.00019,"J,N,Q,R,W,Z,6",7,128451,88.53,0.0,0,0,0,6,14
225,47-50 Sts-Rockefeller Ctr,Manhattan,40.758663,-73.98133,"B,D,F,M",4,128445,84.5,0.0,0,0,0,5,32
612,Lexington Av-53 St,Manhattan,40.757553,-73.969055,"E,M",2,127088,84.84,0.0,0,0,0,7,37
313,72 St,Manhattan,40.778454,-73.98197,"1,2,3",3,126062,86.11,0.0,0,0,0,11,30
451,Junction Blvd,Queens,40.749146,-73.86953,7,1,120479,80.7,0.0,0,0,0,3,6
153,125 St,Manhattan,40.811108,-73.95235,"A,C,B,D",4,118221,76.52,0.0,0,0,0,15,36
618,14 St,Manhattan,40.740894,-74.00169,"A,C,E",3,118143,79.61,0.0,0,0,0,4,20
625,Delancey St,Manhattan,40.718613,-73.98811,F,1,116534,75.72,0.0,0,0,0,11,27
9,57 St-7 Av,Manhattan,40.764664,-73.98066,"N,Q,R,W",4,116280,77.11,0.0,0,0,0,12,28
231,Grand St,Manhattan,40.718266,-73.99375,"B,D",2,114705,79.77,0.0,0,0,0,7,28
601,14 St,Manhattan,40.737827,-74.0002,"F,M,1,2,3",5,114026,76.89,0.0,0,0,0,5,28
450,103 St-Corona Plaza,Queens,40.749866,-73.8627,7,1,113656,77.42,0.0,0,0,0,2,14
392,125 St,Manhattan,40.80414,-73.93759,"4,5,6",3,112659,72.17,0.0,0,0,0,10,28
635,South Ferry,Manhattan,40.70207,-74.013664,1,1,107137,70.21,0.0,0,0,0,13,28
10,49 St,Manhattan,40.7599,-73.98414,"N,R,W",3,106845,72.29,0.0,0,0,0,4,22
167,W 4 St-Wash Sq,Manhattan,40.732338,-74.000496,"A,C,E,B,D,F,M",7,106000,72.7,0.0,0,0,0,8,27
261,Forest Hills-71 Av,Queens,40.72169,-73.84452,"E,F,M,R",4,105909,69.36,0.0,0,0,0,8,23
620,Court St,Brooklyn,40.69322,-73.99,R,1,104101,71.84,0.0,0,0,0,7,33
162,50 St,Manhattan,40.762455,-73.985985,"C,E",2,102951,69.37,0.0,0,0,0,3,17
314,66 St-Lincoln Center,Manhattan,40.77344,-73.98221,1,1,102164,72.61,0.0,0,0,0,14,34
477,72 St,Manhattan,40.7688,-73.95843,Q,1,101516,73.09,0.0,0,0,0,9,36
630,Myrtle-Wyckoff Avs,Brooklyn,40.699814,-73.91158,"L,M",2,101298,67.85,0.0,0,0,0,13,34
345,Crown Hts-Utica Av,Brooklyn,40.668896,-73.932945,"3,4",2,100827,66.55,0.0,0,0,0,11,24
26,DeKalb Av,Brooklyn,40.690636,-73.98183,"B,Q,R",3,100465,67.97,0.0,0,0,0,5,28
151,145 St,Manhattan,40.824783,-73.944214,"A,C,B,D",4,99202,65.44,0.0,0,0,0,7,28
622,Brooklyn Bridge-City Hall,Manhattan,40.71324,-74.0034,"4,5,6",3,97957,67.6,0.0,0,0,0,3,49
604,161 St-Yankee Stadium,Bronx,40.827995,-73.925835,"B,D,4",3,97738,63.14,0.0,0,0,0,2,8
119,1 Av,Manhattan,40.730953,-73.98163,L,1,97717,68.1,0.0,0,0,0,7,29
259,Kew Gardens-Union Tpke,Queens,40.71444,-73.83101,"E,F",2,96927,63.02,0.0,0,0,0,11,19
619,Broadway-Lafayette St,Manhattan,40.725914,-73.99466,"B,D,F,M",4,96293,65.28,0.0,0,0,0,12,25
403,33 St,Manhattan,40.746082,-73.98208,6,1,96159,66.96,0.0,0,0,0,11,30
606,Court Sq,Queens,40.747845,-73.94383,"E,G,M,7",4,94787,63.15,0.0,0,0,0,9,33
452,90 St-Elmhurst Av,Queens,40.74841,-73.87661,7,1,94641,64.34,0.0,0,0,0,0,7
605,168 St,Manhattan,40.840717,-73.93956,"A,C,1",3,94562,63.17,0.0,0,0,0,3,10
398,77 St,Manhattan,40.77362,-73.95988,6,1,94526,68.6,0.0,0,0,0,7,27
316,50 St,Manhattan,40.761726,-73.98385,1,1,93689,64.44,0.0,0,0,0,7,22
476,86 St,Manhattan,40.77789,-73.95179,Q,1,93067,66.86,0.0,0,0,0,7,27
228,23 St,Manhattan,40.742878,-73.99282,"F,M",2,92573,64.38,0.0,0,0,0,3,22
414,Bowling Green,Manhattan,40.70482,-74.01407,"4,5",2,91350,63.04,0.0,0,0,0,15,45
405,23 St,Manhattan,40.739864,-73.9866,6,1,90480,62.88,0.0,0,0,0,14,34
471,34 St-Hudson Yards,Manhattan,40.755882,-74.00191,7,1,88000,60.61,0.0,0,0,0,6,12
120,Bedford Av,Brooklyn,40.717304,-73.95687,L,1,87916,60.93,0.0,0,0,0,2,13
264,Woodhaven Blvd,Queens,40.733105,-73.86923,"M,R",2,87477,58.43,0.0,0,0,0,9,19
404,28 St,Manhattan,40.74307,-73.98426,6,1,83489,57.9,0.0,0,0,0,8,42
254,Jamaica-179 St,Queens,40.712646,-73.78381,F,1,82985,55.73,0.0,0,0,0,11,13
165,23 St,Manhattan,40.745907,-73.99804,"C,E",2,82955,57.25,0.0,0,0,0,5,16
359,Flatbush Av-Brooklyn College,Brooklyn,40.632835,-73.94764,"2,5",2,81970,55.46,0.0,0,0,0,18,34
223,Lexington Av/63 St,Manhattan,40.76463,-73.96611,"F,Q",2,81884,56.28,0.0,0,0,0,5,41
232,2 Av,Manhattan,40.7234,-73.98994,F,1,81817,55.43,0.0,0,0,0,8,29
265,Grand Av-Newtown,Queens,40.737015,-73.87722,"M,R",2,81796,54.97,0.0,0,0,0,11,24
399,68 St-Hunter College,Manhattan,40.768143,-73.96387,6,1,81368,61.22,0.0,0,0,0,11,31
434,3 Av-149 St,Bronx,40.81611,-73.917755,"2,5",2,80665,53.92,0.0,0,0,0,15,33
273,Queens Plaza,Queens,40.748974,-73.93724,"E,M,R",3,80521,56.47,0.0,0,0,0,13,25
16,8 St-NYU,Manhattan,40.730328,-73.99263,"R,W",2,80355,57.4,0.0,0,0,0,11,34
14,23 St,Manhattan,40.741302,-73.98934,"R,W",2,79682,58.89,0.0,0,0,0,9,30
456,61 St-Woodside,Queens,40.74563,-73.902985,7,1,79325,53.74,0.0,0,0,0,9,23
407,Astor Pl,Manhattan,40.730053,-73.99107,6,1,78759,54.54,0.0,0,0,0,13,34
51,Kings Hwy,Brooklyn,40.60867,-73.95773,"B,Q",2,77612,52.83,0.0,0,0,0,9,30
396,96 St,Manhattan,40.78567,-73.95107,6,1,77496,55.04,0.0,0,0,0,8,29
311,86 St,Manhattan,40.788643,-73.97622,1,1,77472,55.34,0.0,0,0,0,10,24
629,Lorimer St,Brooklyn,40.71406,-73.95027,L,1,77397,53.27,0.0,0,0,0,11,27
475,96 St,Manhattan,40.784317,-73.94715,Q,1,75437,51.63,0.0,0,0,0,12,24
179,Nostrand Av,Brooklyn,40.68044,-73.950424,"A,C",2,75157,51.73,0.0,0,0,0,8,33
327,Chambers St,Manhattan,40.715477,-74.00927,"1,2,3",3,73298,52.39,0.0,0,0,0,14,51
277,7 Av,Manhattan,40.762863,-73.981636,"E,B,D",3,72866,50.81,0.0,0,0,0,5,28
8,5 Av/59 St,Manhattan,40.764812,-73.97335,"N,R,W",3,72578,53.44,0.0,0,0,0,7,28
234,East Broadway,Manhattan,40.713715,-73.99017,F,1,72369,48.77,0.0,0,0,0,12,32
464,Vernon Blvd-Jackson Av,Queens,40.742626,-73.95358,7,1,71408,49.73,0.0,0,0,0,5,13
32,36 St,Brooklyn,40.655144,-74.00355,"D,N,R",3,71404,48.74,0.0,0,0,0,6,29
235,York St,Brooklyn,40.701397,-73.98675,F,1,71330,52.6,0.0,0,0,0,2,16
312,79 St,Manhattan,40.783936,-73.97992,1,1,70310,51.77,0.0,0,0,0,12,26
333,Wall St,Manhattan,40.70682,-74.0091,"2,3",2,69953,51.97,0.0,0,0,0,5,38
169,Canal St,Manhattan,40.720825,-74.005226,"A,C,E",3,68804,48.9,0.0,0,0,0,3,15
58,Coney Island-Stillwell Av,Brooklyn,40.577423,-73.98123,"D,F,N,Q",4,67677,45.09,0.0,0,0,0,12,27
328,WTC Cortlandt,Manhattan,40.711834,-74.01219,1,1,67203,49.52,0.0,0,0,0,8,52
320,23 St,Manhattan,40.74408,-73.99566,1,1,66103,46.85,0.0,0,0,0,2,15
1,Astoria-Ditmars Blvd,Queens,40.775036,-73.91203,"N,W",2,63806,44.28,0.0,0,0,0,3,9
439,125 St,Manhattan,40.807755,-73.945496,"2,3",2,63792,42.56,0.0,0,0,0,9,31
626,Franklin Av,Brooklyn,40.67068,-73.95813,"2,3,4,5",4,63651,43.93,0.0,0,0,0,5,26
307,116 St-Columbia University,Manhattan,40.80772,-73.96411,1,1,63582,49.1,0.0,0,0,0,6,28
409,Spring St,Manhattan,40.7223,-73.99714,6,1,63536,46.48,0.0,0,0,0,2,21
159,81 St-Museum of Natural History,Manhattan,40.781433,-73.972145,"C,B",2,63450,47.85,0.0,0,0,0,6,17
323,Christopher St-Sheridan Sq,Manhattan,40.73342,-74.00291,1,1,62614,45.84,0.0,0,0,0,9,28
413,Wall St,Manhattan,40.707558,-74.01186,"4,5",2,62469,47.47,0.0,0,0,0,14,51
461,Queensboro Plaza,Queens,40.750584,-73.9402,"7,N,W",3,62448,43.22,0.0,0,0,0,10,30
308,Cathedral Pkwy,Manhattan,40.803967,-73.96685,110 St,1,61991,45.58,0.0,0,0,0,9,31
127,DeKalb Av,Brooklyn,40.70381,-73.91843,L,1,61625,44.66,0.0,0,0,0,8,19
181,Utica Av,Brooklyn,40.679363,-73.93073,"A,C",2,61545,42.36,0.0,0,0,0,8,22
224,57 St,Manhattan,40.763973,-73.97745,F,1,61041,44.46,0.0,0,0,0,6,31
17,Prince St,Manhattan,40.72433,-73.9977,"R,W",2,60859,48.61,0.0,0,0,0,8,20
319,28 St,Manhattan,40.747215,-73.99336,1,1,60164,43.95,0.0,0,0,0,4,24
458,46 St-Bliss St,Queens,40.743134,-73.918434,7,1,60120,41.58,0.0,0,0,0,12,30
263,63 Dr-Rego Park,Queens,40.729847,-73.8616,"M,R",2,59200,40.52,0.0,0,0,0,9,21
608,4 Av,Brooklyn,40.67085,-73.988304,"F,G",2,58553,41.18,0.0,0,0,0,7,26
13,28 St,Manhattan,40.745495,-73.98869,"R,W",2,58413,44.39,0.0,0,0,0,7,40
35,59 St,Brooklyn,40.64136,-74.01788,"N,R",2,58398,41.13,0.0,0,0,0,6,24
309,103 St,Manhattan,40.799446,-73.968376,1,1,58068,41.84,0.0,0,0,0,11,28
3,30 Av,Queens,40.76678,-73.92148,"N,W",2,57729,41.03,0.0,0,0,0,9,17
271,Steinway St,Queens,40.756878,-73.92074,"M,R",2,57196,38.23,0.0,0,0,0,6,21
175,Hoyt-Schermerhorn Sts,Brooklyn,40.688484,-73.985,"A,C,G",3,56989,40.85,0.0,0,0,0,10,39
266,Elmhurst Av,Queens,40.742455,-73.88202,"M,R",2,56886,39.92,0.0,0,0,0,2,11
305,137 St-City College,Manhattan,40.822006,-73.953674,1,1,56158,38.52,0.0,0,0,0,9,22
168,Spring St,Manhattan,40.726227,-74.00374,"C,E",2,55924,43.86,0.0,0,0,0,6,20
453,82 St-Jackson Hts,Queens,40.747658,-73.8837,7,1,55055,38.05,0.0,0,0,0,8,24
324,Houston St,Manhattan,40.728252,-74.00536,1,1,55036,41.1,0.0,0,0,0,7,16
54,Sheepshead Bay,Brooklyn,40.586895,-73.954155,"B,Q",2,54955,37.87,0.0,0,0,0,7,30
4,Broadway,Queens,40.76182,-73.92551,"N,W",2,54671,38.86,0.0,0,0,0,8,19
160,72 St,Manhattan,40.775593,-73.97641,"C,B",2,53908,42.99,0.0,0,0,0,7,19
366,Parkchester,Bronx,40.833225,-73.86082,6,1,53383,36.36,0.0,0,0,0,10,21
158,86 St,Manhattan,40.78587,-73.96892,"C,B",2,53000,40.15,0.0,0,0,0,8,22
393,116 St,Manhattan,40.79863,-73.94162,6,1,52146,36.14,0.0,0,0,0,9,25
240,7 Av,Brooklyn,40.66627,-73.98031,"F,G",2,52098,39.23,0.0,0,0,0,9,19
71,8 Av,Brooklyn,40.635063,-74.01172,N,1,51742,37.44,0.0,0,0,0,8,16
38,86 St,Brooklyn,40.62269,-74.0284,R,1,51669,35.29,0.0,0,0,0,10,31
188,Euclid Av,Brooklyn,40.675377,-73.87211,"A,C",2,51634,35.44,0.0,0,0,0,7,25
97,Myrtle Av,Brooklyn,40.69721,-73.93565,"M,J,Z",3,51185,37.23,0.0,0,0,0,11,28
276,5 Av/53 St,Manhattan,40.760166,-73.97523,"E,M",2,50989,41.66,0.0,0,0,0,10,37
236,Bergen St,Brooklyn,40.686146,-73.99086,"F,G",2,50644,37.35,0.0,0,0,0,2,14
449,111 St,Queens,40.75173,-73.85533,7,1,50546,36.63,0.0,0,0,0,2,13
237,Carroll St,Brooklyn,40.6803,-73.99505,"F,G",2,49944,38.04,0.0,0,0,0,2,5
395,103 St,Manhattan,40.7906,-73.94748,6,1,49023,35.22,0.0,0,0,0,7,29
221,21 St-Queensbridge,Queens,40.754204,-73.94283,F,1,48303,34.93,0.0,0,0,0,11,26
2,Astoria Blvd,Queens,40.77026,-73.91785,"N,W",2,48194,35.49,0.0,0,0,0,5,16
283,Greenpoint Av,Brooklyn,40.731354,-73.95445,G,1,47670,38.95,0.0,0,0,0,10,30
147,175 St,Manhattan,40.84739,-73.939705,A,1,47472,32.99,0.0,0,0,0,7,23
222,Roosevelt Island,Manhattan,40.759144,-73.95326,F,1,47193,34.62,0.0,0,0,0,6,15
126,Jefferson St,Brooklyn,40.706608,-73.92291,L,1,46856,35.42,0.0,0,0,0,2,15
55,Brighton Beach,Brooklyn,40.57762,-73.96137,"B,Q",2,46641,34.09,0.0,0,0,0,6,19
603,149 St-Grand Concourse,Bronx,40.818375,-73.92735,"2,4,5",3,46437,31.46,0.0,0,0,0,5,14
173,High St,Brooklyn,40.699337,-73.99053,"A,C",2,46431,36.47,0.0,0,0,0,5,20
101,Marcy Av,Brooklyn,40.70836,-73.957756,"M,J,Z",3,45958,43.32,0.0,0,0,0,14,29
438,135 St,Manhattan,40.814228,-73.94077,"2,3",2,45875,31.38,0.0,0,0,0,6,21
301,181 St,Manhattan,40.849506,-73.93359,1,1,45384,35.79,0.0,0,0,0,15,36
157,96 St,Manhattan,40.79164,-73.9647,"C,B",2,45334,34.45,0.0,0,0,0,6,17
44,Church Av,Brooklyn,40.650528,-73.96298,"B,Q",2,45216,44.2,0.0,0,0,0,9,24
303,157 St,Manhattan,40.83404,-73.94489,1,1,45150,34.81,0.0,0,0,0,9,15
337,Nevins St,Brooklyn,40.688248,-73.98049,"2,3,4,5",4,45100,32.33,0.0,0,0,0,10,31
459,40 St-Lowery St,Queens,40.743782,-73.92402,7,1,44818,31.9,0.0,0,0,0,4,20
122,Graham Av,Brooklyn,40.714565,-73.94405,L,1,44573,34.13,0.0,0,0,0,10,29
306,125 St,Manhattan,40.815582,-73.958374,1,1,44263,31.96,0.0,0,0,0,9,20
284,Nassau Av,Brooklyn,40.724636,-73.95128,G,1,43914,37.25,0.0,0,0,0,9,22
501,St George,Staten Island,40.64375,-74.07365,SIR,1,43597,30.57,0.0,0,0,0,2,13
371,Hunts Point Av,Bronx,40.82095,-73.89055,6,1,42582,28.77,0.0,0,0,0,7,20
146,181 St,Manhattan,40.851696,-73.937965,A,1,42000,30.79,0.0,0,0,0,4,30
304,145 St,Manhattan,40.82655,-73.95036,1,1,41898,32.73,0.0,0,0,0,10,28
243,Church Av,Brooklyn,40.64404,-73.979675,"F,G",2,41639,29.53,0.0,0,0,0,10,26
356,Church Av,Brooklyn,40.650845,-73.94958,"2,5",2,41233,29.14,0.0,0,0,0,8,22
42,Prospect Park,Brooklyn,40.661613,-73.96225,"B,Q,S",3,41069,29.31,0.0,0,0,0,11,18
34,53 St,Brooklyn,40.64507,-74.01403,R,1,40912,30.22,0.0,0,0,0,8,28
289,Bedford-Nostrand Avs,Brooklyn,40.68963,-73.95352,G,1,40893,30.31,0.0,0,0,0,10,27
336,Hoyt St,Brooklyn,40.690544,-73.98506,"2,3",2,40771,30.59,0.0,0,0,0,16,34
440,116 St,Manhattan,40.802097,-73.94962,"2,3",2,40040,28.38,0.0,0,0,0,5,25
384,Burnside Av,Bronx,40.853455,-73.907684,4,1,39956,28.16,0.0,0,0,0,4,29
143,Inwood-207 St,Manhattan,40.868073,-73.9199,A,1,39646,27.38,0.0,0,0,0,1,5
394,110 St,Manhattan,40.79502,-73.94425,6,1,39128,28.77,0.0,0,0,0,3,29
340,Grand Army Plaza,Brooklyn,40.675236,-73.97105,"2,3",2,38579,29.09,0.0,0,0,0,8,17
382,Fordham Rd,Bronx,40.862804,-73.90103,4,1,38371,26.67,0.0,0,0,0,2,21
125,Morgan Av,Brooklyn,40.706154,-73.93314,L,1,38056,30.01,0.0,0,0,0,6,17
426,E 180 St,Bronx,40.841892,-73.87349,"2,5",2,37473,26.0,0.0,0,0,0,5,15
621,Broadway Junction,Brooklyn,40.678333,-73.90532,"A,C,J,L,Z",5,36987,25.69,0.0,0,0,0,10,24
28,Union St,Brooklyn,40.677315,-73.98311,R,1,36891,28.05,0.0,0,0,0,5,17
295,231 St,Bronx,40.878857,-73.90483,1,1,36803,26.18,0.0,0,0,0,3,11
129,Halsey St,Queens,40.695602,-73.90408,L,1,36792,27.66,0.0,0,0,0,8,21
334,Clark St,Brooklyn,40.697468,-73.99309,"2,3",2,36789,30.03,0.0,0,0,0,5,13
118,3 Av,Manhattan,40.73285,-73.98612,L,1,36765,29.53,0.0,0,0,0,10,35
155,Cathedral Pkwy,Manhattan,40.800602,-73.95816,110 St,1,36129,26.86,0.0,0,0,0,13,36
355,Winthrop St,Brooklyn,40.65665,-73.9502,"2,5",2,35960,26.62,0.0,0,0,0,5,24
36,Bay Ridge Av,Brooklyn,40.634968,-74.02338,R,1,35913,25.86,0.0,0,0,0,10,27
33,45 St,Brooklyn,40.648937,-74.01001,R,1,35726,26.88,0.0,0,0,0,3,17
213,Fordham Rd,Bronx,40.861298,-73.89775,"B,D",2,35668,25.72,0.0,0,0,0,10,27
177,Clinton-Washington Avs,Brooklyn,40.68326,-73.965836,C,1,35502,28.22,0.0,0,0,0,8,28
321,18 St,Manhattan,40.74104,-73.99787,1,1,35381,27.49,0.0,0,0,0,1,16
47,Newkirk Plaza,Brooklyn,40.635082,-73.96279,"B,Q",2,35182,35.32,0.0,0,0,0,6,21
255,169 St,Queens,40.71047,-73.7936,F,1,35117,24.99,0.0,0,0,0,17,48
388,167 St,Bronx,40.835537,-73.9214,4,1,34810,24.65,0.0,0,0,0,2,15
377,3 Av-138 St,Bronx,40.810474,-73.92614,6,1,34770,24.62,0.0,0,0,0,8,19
441,Central Park North,Manhattan,40.799076,-73.95182,110 St,1,34733,24.77,0.0,0,0,0,3,21
329,Rector St,Manhattan,40.70751,-74.01379,1,1,34425,28.76,0.0,0,0,0,12,44
262,67 Av,Queens,40.726524,-73.85272,"M,R",2,34414,25.57,0.0,0,0,0,4,15
460,33 St-Rawson St,Queens,40.744587,-73.931,7,1,34195,25.27,0.0,0,0,0,3,18
68,Bay Pkwy,Brooklyn,40.601875,-73.99373,D,1,33735,25.36,0.0,0,0,0,9,21
381,Kingsbridge Rd,Bronx,40.86776,-73.89717,4,1,33649,24.02,0.0,0,0,0,4,18
123,Grand St,Brooklyn,40.711926,-73.94067,L,1,32924,24.77,0.0,0,0,0,4,22
41,7 Av,Brooklyn,40.67705,-73.97237,"B,Q",2,32895,37.21,0.0,0,0,0,8,24
270,46 St,Queens,40.756313,-73.91333,"M,R",2,32802,24.33,0.0,0,0,0,5,17
300,191 St,Manhattan,40.855225,-73.92941,1,1,32574,26.53,0.0,0,0,0,6,15
124,Montrose Av,Brooklyn,40.70774,-73.93985,L,1,32410,26.92,0.0,0,0,0,3,16
TRAM1,RI Tramway,Manhattan,40.761337,-73.96416,Manhattan,1,32110,28.19,0.0,0,0,0,9,36
358,Newkirk Av-Little Haiti,Brooklyn,40.63997,-73.94841,"2,5",2,31970,23.72,0.0,0,0,0,8,27
98,Flushing Av,Brooklyn,40.70026,-73.941124,"M,J",2,31962,23.69,0.0,0,0,0,13,32
76,Bay Pkwy,Brooklyn,40.611816,-73.98185,N,1,31701,24.09,0.0,0,0,0,5,10
293,Van Cortlandt Park-242 St,Bronx,40.889248,-73.89858,1,1,31217,24.74,0.0,0,0,0,0,1
256,Parsons Blvd,Queens,40.707565,-73.80333,F,1,31165,22.53,0.0,0,0,0,16,28
72,Fort Hamilton Pkwy,Brooklyn,40.631386,-74.00535,N,1,30923,23.46,0.0,0,0,0,9,22
5,36 Av,Queens,40.756805,-73.92957,"N,W",2,30907,23.52,0.0,0,0,0,2,6
379,Mosholu Pkwy,Bronx,40.87975,-73.88466,4,1,30730,22.32,0.0,0,0,0,5,11
180,Kingston-Throop Avs,Brooklyn,40.67992,-73.94086,C,1,30702,22.98,0.0,0,0,0,10,34
387,170 St,Bronx,40.840076,-73.91779,4,1,30183,21.57,0.0,0,0,0,3,20
218,167 St,Bronx,40.83377,-73.91844,"B,D",2,30054,21.65,0.0,0,0,0,4,15
455,69 St,Queens,40.746326,-73.8964,7,1,29758,23.07,0.0,0,0,0,7,20
299,Dyckman St,Manhattan,40.86053,-73.92554,1,1,29679,22.87,0.0,0,0,0,0,5
95,Gates Av,Brooklyn,40.68963,-73.92227,"J,Z",2,29494,22.99,0.0,0,0,0,8,17
154,116 St,Manhattan,40.805084,-73.95488,"C,B",2,29455,22.4,0.0,0,0,0,11,28
144,Dyckman St,Manhattan,40.86549,-73.92727,A,1,29268,21.38,0.0,0,0,0,1,5
65,79 St,Brooklyn,40.613503,-74.00061,D,1,28655,22.4,0.0,0,0,0,3,14
52,Avenue U,Brooklyn,40.5993,-73.95593,Q,1,28626,21.87,0.0,0,0,0,7,20
424,Pelham Pkwy,Bronx,40.857193,-73.867615,"2,5",2,28599,20.2,0.0,0,0,0,7,9
378,Woodlawn,Bronx,40.886036,-73.87875,4,1,28595,20.69,0.0,0,0,0,2,4
176,Lafayette Av,Brooklyn,40.68611,-73.973946,C,1,28399,21.78,0.0,0,0,0,6,32
269,Northern Blvd,Queens,40.752884,-73.906006,"M,R",2,28249,21.48,0.0,0,0,0,11,23
457,52 St,Queens,40.74415,-73.91255,7,1,28140,21.68,0.0,0,0,0,4,19
TRAM2,RI Tramway,Manhattan,40.75734,-73.95412,Roosevelt,1,27896,24.71,0.0,0,0,0,9,12
326,Franklin St,Manhattan,40.71932,-74.00689,1,1,27892,23.19,0.0,0,0,0,3,23
66,18 Av,Brooklyn,40.607952,-74.00174,D,1,27816,21.1,0.0,0,0,0,10,19
242,Fort Hamilton Pkwy,Brooklyn,40.650784,-73.97578,"F,G",2,27668,22.77,0.0,0,0,0,0,18
215,Tremont Av,Bronx,40.85041,-73.90523,"B,D",2,27667,19.86,0.0,0,0,0,14,35
346,Sutter Av-Rutland Rd,Brooklyn,40.66472,-73.92261,3,1,27529,20.09,0.0,0,0,0,9,31
354,Sterling St,Brooklyn,40.662743,-73.95085,"2,5",2,27001,20.64,0.0,0,0,0,7,23
241,15 St-Prospect Park,Brooklyn,40.660366,-73.97949,"F,G",2,26980,21.4,0.0,0,0,0,5,10
210,Norwood-205 St,Bronx,40.87481,-73.87885,D,1,26889,19.58,0.0,0,0,0,8,14
421,Gun Hill Rd,Bronx,40.87785,-73.86626,"2,5",2,26740,19.33,0.0,0,0,0,7,13
77,Kings Hwy,Brooklyn,40.603924,-73.980354,N,1,26617,20.63,0.0,0,0,0,1,4
30,Prospect Av,Brooklyn,40.665413,-73.992874,R,1,26603,20.75,0.0,0,0,0,1,14
627,Franklin Av,Brooklyn,40.68138,-73.95685,"C,S",2,26495,20.38,0.0,0,0,0,13,36
341,Eastern Pkwy-Brooklyn Museum,Brooklyn,40.671986,-73.96438,"2,3",2,26474,21.32,0.0,0,0,0,1,11
360,Pelham Bay Park,Bronx,40.852463,-73.82812,6,1,26389,19.29,0.0,0,0,0,13,18
43,Parkside Av,Brooklyn,40.655293,-73.961494,Q,1,25956,26.87,0.0,0,0,0,10,24
292,Fulton St,Brooklyn,40.68712,-73.97537,G,1,25823,21.2,0.0,0,0,0,7,29
298,207 St,Manhattan,40.86462,-73.91882,1,1,25801,19.77,0.0,0,0,0,2,3
22,Rector St,Manhattan,40.70722,-74.01334,"R,W",2,25795,22.29,0.0,0,0,0,12,47
183,Rockaway Av,Brooklyn,40.67834,-73.91195,C,1,25576,19.67,0.0,0,0,0,9,30
96,Kosciuszko St,Brooklyn,40.69334,-73.92882,J,1,25558,20.08,0.0,0,0,0,15,32
59,9 Av,Brooklyn,40.646294,-73.99432,D,1,25414,19.93,0.0,0,0,0,4,8
365,Castle Hill Av,Bronx,40.834255,-73.85122,6,1,25315,18.4,0.0,0,0,0,5,12
20,City Hall,Manhattan,40.713284,-74.00698,"R,W",2,25287,21.89,0.0,0,0,0,30,49
339,Bergen St,Brooklyn,40.68083,-73.9751,"2,3",2,25232,19.98,0.0,0,0,0,12,34
109,Fresh Pond Rd,Queens,40.706184,-73.895874,M,1,25126,20.25,0.0,0,0,0,5,13
211,Bedford Park Blvd,Bronx,40.873245,-73.88714,"B,D",2,25031,18.47,0.0,0,0,0,6,22
192,Rockaway Blvd,Queens,40.680428,-73.84386,A,1,24932,24.42,0.0,0,0,0,7,25
39,Bay Ridge-95 St,Brooklyn,40.616623,-74.030876,R,1,24821,18.75,0.0,0,0,0,8,26
37,77 St,Brooklyn,40.62974,-74.02551,R,1,24739,19.03,0.0,0,0,0,7,23
430,Simpson St,Bronx,40.824074,-73.89307,"2,5",2,24261,18.15,0.0,0,0,0,7,24
152,135 St,Manhattan,40.817894,-73.94765,"C,B",2,23732,18.34,0.0,0,0,0,11,28
94,Halsey St,Brooklyn,40.68637,-73.91656,J,1,23528,18.94,0.0,0,0,0,9,22
325,Canal St,Manhattan,40.722855,-74.00628,1,1,23433,20.27,0.0,0,0,0,5,12
74,18 Av,Brooklyn,40.62067,-73.99042,N,1,23292,18.33,0.0,0,0,0,5,18
67,20 Av,Brooklyn,40.604557,-73.99817,D,1,23288,18.27,0.0,0,0,0,5,18
291,Clinton-Washington Avs,Brooklyn,40.688087,-73.96684,G,1,23261,20.51,0.0,0,0,0,10,23
369,Elder Av,Bronx,40.828583,-73.87916,6,1,23154,17.78,0.0,0,0,0,4,10
258,Briarwood,Queens,40.70918,-73.82057,"E,F",2,23100,17.61,0.0,0,0,0,5,11
288,Myrtle-Willoughby Avs,Brooklyn,40.69457,-73.94904,G,1,23052,20.42,0.0,0,0,0,3,16
368,Morrison Av-Soundview,Bronx,40.82952,-73.87452,6,1,22894,17.27,0.0,0,0,0,7,16
290,Classon Av,Brooklyn,40.688873,-73.96007,G,1,22890,19.24,0.0,0,0,0,7,24
46,Cortelyou Rd,Brooklyn,40.640926,-73.96389,Q,1,22778,23.8,0.0,0,0,0,0,10
195,Ozone Park-Lefferts Blvd,Queens,40.68595,-73.8258,A,1,22734,25.57,0.0,0,0,0,8,29
352,New Lots Av,Brooklyn,40.666237,-73.88408,3,1,22695,16.86,0.0,0,0,0,9,16
212,Kingsbridge Rd,Bronx,40.866978,-73.89351,"B,D",2,22691,16.95,0.0,0,0,0,6,20
182,Ralph Av,Brooklyn,40.67882,-73.920784,C,1,22627,17.34,0.0,0,0,0,9,23
64,71 St,Brooklyn,40.61959,-73.99886,D,1,22388,17.81,0.0,0,0,0,0,4
130,Wilson Av,Brooklyn,40.688763,-73.904045,L,1,22092,18.08,0.0,0,0,0,2,14
107,Broad St,Manhattan,40.706474,-74.011055,"J,Z",2,22047,24.36,0.0,0,0,0,10,51
385,176 St,Bronx,40.84848,-73.9118,4,1,21979,16.53,0.0,0,0,0,5,24
156,103 St,Manhattan,40.796093,-73.96146,"C,B",2,21905,17.59,0.0,0,0,0,6,17
615,New Utrecht Av,Brooklyn,40.626472,-73.99635,N,1,21896,16.99,0.0,0,0,0,4,11
380,Bedford Park Blvd-Lehman College,Bronx,40.873413,-73.89006,4,1,21815,16.49,0.0,0,0,0,7,21
383,183 St,Bronx,40.858406,-73.90388,4,1,21768,15.98,0.0,0,0,0,0,10
348,Rockaway Av,Brooklyn,40.662548,-73.90894,3,1,21564,16.27,0.0,0,0,0,6,13
83,Woodhaven Blvd,Queens,40.69388,-73.85158,"J,Z",2,21367,16.07,0.0,0,0,0,11,19
448,Mets-Willets Point,Queens,40.754623,-73.84563,7,1,21358,16.63,0.0,0,0,0,4,6
217,170 St,Bronx,40.839306,-73.9134,"B,D",2,21310,16.21,0.0,0,0,0,12,24
357,Beverly Rd,Brooklyn,40.6451,-73.94896,"2,5",2,21262,16.56,0.0,0,0,0,4,15
296,Marble Hill-225 St,Manhattan,40.87456,-73.90983,1,1,21214,16.37,0.0,0,0,0,1,3
280,Jamaica-Van Wyck,Queens,40.702564,-73.81686,E,1,20895,16.57,0.0,0,0,0,12,23
145,190 St,Manhattan,40.85902,-73.93418,A,1,20861,16.15,0.0,0,0,0,4,10
75,20 Av,Brooklyn,40.61741,-73.98502,N,1,20794,17.8,0.0,0,0,0,0,13
376,Brook Av,Bronx,40.807568,-73.91924,6,1,20649,15.79,0.0,0,0,0,4,10
463,Hunters Point Av,Queens,40.742214,-73.94891,7,1,20556,17.42,0.0,0,0,0,3,16
373,E 149 St,Bronx,40.81212,-73.9041,6,1,19935,14.97,0.0,0,0,0,6,12
110,Forest Av,Queens,40.704422,-73.903076,M,1,19918,17.49,0.0,0,0,0,8,36
257,Sutphin Blvd,Queens,40.70546,-73.81071,F,1,19849,15.06,0.0,0,0,0,7,24
347,Saratoga Av,Brooklyn,40.661453,-73.91633,3,1,19820,15.34,0.0,0,0,0,15,30
432,Prospect Av,Bronx,40.819584,-73.90177,"2,5",2,19781,15.36,0.0,0,0,0,5,20
209,Far Rockaway-Mott Av,Queens,40.603996,-73.7554,A,1,19732,14.51,0.0,0,0,0,5,8
286,Broadway,Brooklyn,40.706093,-73.95031,G,1,19645,17.54,0.0,0,0,0,11,21
50,Avenue M,Brooklyn,40.61762,-73.9594,Q,1,19564,21.57,0.0,0,0,0,6,19
386,Mt Eden Av,Bronx,40.844433,-73.91469,4,1,19543,15.1,0.0,0,0,0,1,15
69,25 Av,Brooklyn,40.597706,-73.98683,D,1,19412,15.52,0.0,0,0,0,11,24
294,238 St,Bronx,40.884666,-73.90087,1,1,19193,15.49,0.0,0,0,0,4,6
428,174 St,Bronx,40.837288,-73.88773,"2,5",2,19140,14.58,0.0,0,0,0,3,12
53,Neck Rd,Brooklyn,40.595245,-73.95516,Q,1,19108,16.29,0.0,0,0,0,0,11
427,West Farms Sq-E Tremont Av,Bronx,40.840294,-73.88005,"2,5",2,19034,14.46,0.0,0,0,0,8,17
49,Avenue J,Brooklyn,40.62504,-73.9608,Q,1,18916,19.89,0.0,0,0,0,4,21
149,163 St-Amsterdam Av,Manhattan,40.836014,-73.939896,C,1,18841,14.56,0.0,0,0,0,4,15
238,Smith-9 Sts,Brooklyn,40.67358,-73.99596,"F,G",2,18696,15.16,0.0,0,0,0,1,8
108,Middle Village-Metropolitan Av,Queens,40.711395,-73.8896,M,1,18633,15.11,0.0,0,0,0,3,11
344,Kingston Av,Brooklyn,40.6694,-73.94216,3,1,18600,14.96,0.0,0,0,0,5,20
78,Avenue U,Brooklyn,40.597473,-73.97913,N,1,18293,14.58,0.0,0,0,0,4,15
416,Wakefield-241 St,Bronx,40.903126,-73.85062,2,1,18149,13.9,0.0,0,0,0,3,4
214,182-183 Sts,Bronx,40.856094,-73.90074,"B,D",2,18111,13.93,0.0,0,0,0,2,13
31,25 St,Brooklyn,40.660397,-73.99809,R,1,18044,14.8,0.0,0,0,0,3,15
113,Knickerbocker Av,Brooklyn,40.698666,-73.91971,M,1,18042,15.61,0.0,0,0,0,7,24
189,Grant Av,Brooklyn,40.677044,-73.86505,A,1,18027,20.46,0.0,0,0,0,3,16
444,Gun Hill Rd,Bronx,40.869526,-73.84638,5,1,17916,14.61,0.0,0,0,0,3,13
363,Westchester Sq-E Tremont Av,Bronx,40.839893,-73.84295,6,1,17733,13.93,0.0,0,0,0,5,10
45,Beverley Rd,Brooklyn,40.64403,-73.96449,Q,1,17728,19.04,0.0,0,0,0,0,8
60,Fort Hamilton Pkwy,Brooklyn,40.640915,-73.9943,D,1,17548,14.53,0.0,0,0,0,1,12
114,Central Av,Brooklyn,40.697857,-73.9274,M,1,17424,15.74,0.0,0,0,0,10,29
6,39 Av-Dutch Kills,Queens,40.75288,-73.932755,"N,W",2,17268,15.34,0.0,0,0,0,8,12
423,Allerton Av,Bronx,40.865463,-73.867355,"2,5",2,17149,13.34,0.0,0,0,0,6,11
99,Lorimer St,Brooklyn,40.70387,-73.94741,"M,J",2,16950,14.22,0.0,0,0,0,7,36
250,Kings Hwy,Brooklyn,40.603218,-73.97236,F,1,16933,13.91,0.0,0,0,0,3,6
343,Nostrand Av,Brooklyn,40.669846,-73.95046,3,1,16706,13.44,0.0,0,0,0,7,30
391,138 St-Grand Concourse,Bronx,40.813225,-73.92985,"4,5",2,16596,12.82,0.0,0,0,0,2,14
216,174-175 Sts,Bronx,40.8459,-73.91013,"B,D",2,16551,12.83,0.0,0,0,0,6,11
350,Pennsylvania Av,Brooklyn,40.664635,-73.8949,3,1,16427,12.69,0.0,0,0,0,6,19
198,Howard Beach-JFK Airport,Queens,40.660477,-73.8303,A,1,16323,13.2,0.0,0,0,0,5,14
134,Sutter Av,Brooklyn,40.66937,-73.90198,L,1,16169,12.5,0.0,0,0,0,5,21
245,18 Av,Brooklyn,40.629753,-73.976974,F,1,16043,13.16,0.0,0,0,0,6,19
367,St Lawrence Av,Bronx,40.83151,-73.867615,6,1,15989,12.71,0.0,0,0,0,3,18
85,75 St-Elderts Ln,Queens,40.691322,-73.86714,"J,Z",2,15979,13.08,0.0,0,0,0,0,0
244,Ditmas Av,Brooklyn,40.63612,-73.97817,F,1,15966,13.1,0.0,0,0,0,1,2
361,Buhre Av,Bronx,40.84681,-73.832565,6,1,15905,13.35,0.0,0,0,0,2,9
418,233 St,Bronx,40.893192,-73.857475,"2,5",2,15862,12.15,0.0,0,0,0,5,10
136,New Lots Av,Brooklyn,40.658733,-73.89923,L,1,15734,11.91,0.0,0,0,0,5,12
268,65 St,Queens,40.74967,-73.89845,"M,R",2,15573,13.11,0.0,0,0,0,0,12
87,Crescent St,Brooklyn,40.683193,-73.87379,"J,Z",2,15475,11.9,0.0,0,0,0,7,18
272,36 St,Queens,40.75204,-73.92878,"M,R",2,15458,13.54,0.0,0,0,0,5,13
100,Hewes St,Brooklyn,40.70687,-73.95343,"M,J",2,15444,12.82,0.0,0,0,0,7,25
353,President St-Medgar Evers College,Brooklyn,40.667885,-73.95068,"2,5",2,15291,12.68,0.0,0,0,0,5,31
372,Longwood Av,Bronx,40.816105,-73.89644,6,1,15254,12.41,0.0,0,0,0,7,10
442,Eastchester-Dyre Av,Bronx,40.8883,-73.83083,5,1,15206,12.96,0.0,0,0,0,5,14
260,75 Av,Queens,40.71833,-73.837326,"E,F",2,15109,12.69,0.0,0,0,0,5,9
433,Jackson Av,Bronx,40.81649,-73.90781,"2,5",2,14824,13.03,0.0,0,0,0,0,11
429,Freeman St,Bronx,40.829994,-73.89187,"2,5",2,14646,11.74,0.0,0,0,0,4,26
190,80 St,Queens,40.67937,-73.85899,A,1,14352,16.75,0.0,0,0,0,2,13
436,Harlem-148 St,Manhattan,40.82388,-73.93647,3,1,14231,11.59,0.0,0,0,0,4,22
56,Ocean Pkwy,Brooklyn,40.576313,-73.9685,Q,1,13965,11.93,0.0,0,0,0,7,24
61,50 St,Brooklyn,40.63626,-73.99479,D,1,13922,11.97,0.0,0,0,0,5,17
82,104 St,Queens,40.69518,-73.84433,"J,Z",2,12746,10.73,0.0,0,0,0,5,12
131,Bushwick Av-Aberdeen St,Brooklyn,40.68283,-73.90525,L,1,12662,11.52,0.0,0,0,0,0,10
70,Bay 50 St,Brooklyn,40.58884,-73.983765,D,1,12504,10.9,0.0,0,0,0,4,10
437,145 St,Manhattan,40.82042,-73.93625,3,1,12397,10.5,0.0,0,0,0,6,13
48,Avenue H,Brooklyn,40.62927,-73.96164,Q,1,12369,13.71,0.0,0,0,0,0,13
419,225 St,Bronx,40.888023,-73.860344,"2,5",2,12326,9.85,0.0,0,0,0,5,8
375,Cypress Av,Bronx,40.805367,-73.91404,6,1,12319,10.8,0.0,0,0,0,4,8
135,Livonia Av,Brooklyn,40.66404,-73.90057,L,1,12234,9.91,0.0,0,0,0,3,9
111,Seneca Av,Queens,40.702763,-73.90774,M,1,12209,11.54,0.0,0,0,0,13,37
220,155 St,Manhattan,40.830135,-73.93821,"B,D",2,12191,9.99,0.0,0,0,0,8,15
445,Pelham Pkwy,Bronx,40.858986,-73.85536,5,1,12107,11.06,0.0,0,0,0,7,12
103,Bowery,Manhattan,40.72028,-73.99391,"J,Z",2,12069,14.72,0.0,0,0,0,3,22
287,Flushing Av,Brooklyn,40.70038,-73.95023,G,1,12069,11.48,0.0,0,0,0,3,19
137,East 105 St,Brooklyn,40.650574,-73.89948,L,1,11981,9.54,0.0,0,0,0,0,9
248,Avenue N,Brooklyn,40.61514,-73.9742,F,1,11962,10.6,0.0,0,0,0,6,14
93,Chauncey St,Brooklyn,40.68289,-73.91045,"J,Z",2,11771,10.62,0.0,0,0,0,12,30
417,Nereid Av,Bronx,40.89838,-73.85438,"2,5",2,11663,9.51,0.0,0,0,0,8,10
446,Morris Park,Bronx,40.854362,-73.8605,5,1,11569,11.19,0.0,0,0,0,0,8
443,Baychester Av,Bronx,40.878662,-73.83859,5,1,11551,9.98,0.0,0,0,0,0,14
187,Shepherd Av,Brooklyn,40.67413,-73.88075,C,1,11425,9.33,0.0,0,0,0,0,12
138,Canarsie-Rockaway Pkwy,Brooklyn,40.646652,-73.90185,L,1,11376,9.47,0.0,0,0,0,8,24
186,Van Siclen Av,Brooklyn,40.67271,-73.89036,C,1,11365,9.41,0.0,0,0,0,0,21
57,W 8 St-NY Aquarium,Brooklyn,40.576126,-73.97594,"F,Q",2,11354,10.16,0.0,0,0,0,4,23
297,215 St,Manhattan,40.869446,-73.915276,1,1,11162,9.73,0.0,0,0,0,2,3
90,Van Siclen Av,Brooklyn,40.678024,-73.891685,"J,Z",2,11089,9.58,0.0,0,0,0,4,20
252,Avenue X,Brooklyn,40.58962,-73.97425,F,1,11084,9.26,0.0,0,0,0,6,16
349,Junius St,Brooklyn,40.663513,-73.90245,3,1,11032,8.9,0.0,0,0,0,3,10
150,155 St,Manhattan,40.830517,-73.94151,C,1,11021,9.3,0.0,0,0,0,7,20
80,121 St,Queens,40.700493,-73.82829,"J,Z",2,10995,8.92,0.0,0,0,0,7,20
79,86 St,Brooklyn,40.59272,-73.97823,N,1,10993,9.47,0.0,0,0,0,6,16
81,111 St,Queens,40.69742,-73.83634,J,1,10849,8.97,0.0,0,0,0,9,27
249,Avenue P,Brooklyn,40.608944,-73.97302,F,1,10613,9.45,0.0,0,0,0,0,0
88,Norwood Av,Brooklyn,40.68141,-73.880035,"J,Z",2,10513,8.89,0.0,0,0,0,3,9
185,Liberty Av,Brooklyn,40.67454,-73.896545,C,1,10338,8.68,0.0,0,0,0,6,23
351,Van Siclen Av,Brooklyn,40.665447,-73.8894,3,1,10227,8.7,0.0,0,0,0,4,22
420,219 St,Bronx,40.883896,-73.86263,"2,5",2,10050,8.54,0.0,0,0,0,1,5
422,Burke Av,Bronx,40.871357,-73.867165,"2,5",2,9990,8.37,0.0,0,0,0,0,2
431,Intervale Av,Bronx,40.82218,-73.896736,"2,5",2,9734,8.71,0.0,0,0,0,4,27
364,Zerega Av,Bronx,40.836487,-73.84704,6,1,9683,8.65,0.0,0,0,0,0,5
191,88 St,Queens,40.679844,-73.85147,A,1,9666,12.33,0.0,0,0,0,0,8
251,Avenue U,Brooklyn,40.59606,-73.97336,F,1,9450,8.22,0.0,0,0,0,4,8
89,Cleveland St,Brooklyn,40.679947,-73.884636,J,1,9389,8.18,0.0,0,0,0,3,15
204,Beach 67 St,Queens,40.590927,-73.79692,A,1,9097,7.78,0.0,0,0,0,5,10
91,Alabama Av,Brooklyn,40.67699,-73.89865,J,1,8868,7.46,0.0,0,0,0,12,22
133,Atlantic Av,Brooklyn,40.675346,-73.9031,L,1,8827,7.81,0.0,0,0,0,3,20
362,Middletown Rd,Bronx,40.843864,-73.83632,6,1,8678,7.89,0.0,0,0,0,1,8
84,85 St-Forest Pkwy,Queens,40.692436,-73.86001,J,1,8503,7.71,0.0,0,0,0,0,0
425,Bronx Park East,Bronx,40.848827,-73.868454,"2,5",2,8336,7.66,0.0,0,0,0,4,10
282,21 St,Queens,40.744064,-73.94972,G,1,8160,9.47,0.0,0,0,0,7,22
370,Whitlock Av,Bronx,40.826527,-73.886284,6,1,8033,7.08,0.0,0,0,0,5,17
194,111 St,Queens,40.68433,-73.83216,A,1,7937,10.7,0.0,0,0,0,7,21
62,55 St,Brooklyn,40.631435,-73.995476,D,1,7564,7.17,0.0,0,0,0,7,22
253,Neptune Av,Brooklyn,40.581013,-73.97457,F,1,7413,7.29,0.0,0,0,0,5,11
141,Park Pl,Brooklyn,40.67477,-73.95763,S,1,7300,7.38,0.0,0,0,0,5,29
246,Avenue I,Brooklyn,40.62532,-73.97613,F,1,6762,6.25,0.0,0,0,0,6,14
205,Beach 60 St,Queens,40.592373,-73.78852,A,1,6755,5.98,0.0,0,0,0,4,11
193,104 St,Queens,40.68171,-73.837685,A,1,6227,8.76,0.0,0,0,0,5,13
208,Beach 25 St,Queens,40.600067,-73.76135,A,1,6115,5.91,0.0,0,0,0,0,2
374,E 143 St-St Mary's St,Bronx,40.80872,-73.90765,6,1,5747,6.55,0.0,0,0,0,0,5
247,Bay Pkwy,Brooklyn,40.62077,-73.975266,F,1,5268,5.4,0.0,0,0,0,2,5
207,Beach 36 St,Queens,40.595398,-73.76817,A,1,3303,3.72,0.0,0,0,0,4,9
86,Cypress Hills,Brooklyn,40.68994,-73.87255,J,1,3302,4.07,0.0,0,0,0,4,10
203,Rockaway Park-Beach 116 St,Queens,40.580902,-73.835594,"A,S",2,3155,3.56,0.0,0,0,0,4,9
206,Beach 44 St,Queens,40.59294,-73.77602,A,1,3144,3.49,0.0,0,0,0,0,7
197,Aqueduct-N Conduit Av,Queens,40.668236,-73.83406,A,1,3002,4.88,0.0,0,0,0,3,8
502,Tompkinsville,Staten Island,40.636948,-74.07484,SIR,1,2722,3.49,0.0,0,0,0,9,19
196,Aqueduct Racetrack,Queens,40.672096,-73.83592,A,1,2698,3.55,0.0,0,0,0,4,8
200,Beach 90 St,Queens,40.588036,-73.813644,"A,S",2,2693,3.43,0.0,0,0,0,6,11
201,Beach 98 St,Queens,40.585308,-73.82056,"A,S",2,1550,2.7,0.0,0,0,0,5,9
199,Broad Channel,Queens,40.608383,-73.815926,"A,S",2,1218,2.45,0.0,0,0,0,0,5
202,Beach 105 St,Queens,40.58321,-73.82756,"A,S",2,970,2.53,0.0,0,0,0,4,7
